{
    "type": "FeatureCollection",
    "features": [
        {
            "type": "Feature",
            "properties": {
                "A32_001": "29209",
                "A32_002": "",
                "A32_003": "生駒北中学校",
                "address": "",
                "label": "生駒北中学校"
            },
            "geometry": {
                "type": "Point",
                "coordinates": [
                    135.7216797,
                    34.73892216
                ]
            }
        },
        {
            "type": "Feature",
            "properties": {
                "A32_001": "29209",
                "A32_002": "",
                "A32_003": "生駒中学校",
                "address": "",
                "label": "生駒中学校"
            },
            "geometry": {
                "type": "Point",
                "coordinates": [
                    135.6941924,
                    34.69882621
                ]
            }
        },
        {
            "type": "Feature",
            "properties": {
                "A32_001": "29209",
                "A32_002": "",
                "A32_003": "生駒南中学校",
                "address": "",
                "label": "生駒南中学校"
            },
            "geometry": {
                "type": "Point",
                "coordinates": [
                    135.7061126,
                    34.66681908
                ]
            }
        },
        {
            "type": "Feature",
            "properties": {
                "A32_001": "29209",
                "A32_002": "",
                "A32_003": "大瀬中学校",
                "address": "",
                "label": "大瀬中学校"
            },
            "geometry": {
                "type": "Point",
                "coordinates": [
                    135.7179017,
                    34.666289
                ]
            }
        },
        {
            "type": "Feature",
            "properties": {
                "A32_001": "29209",
                "A32_002": "",
                "A32_003": "上中学校",
                "address": "",
                "label": "上中学校"
            },
            "geometry": {
                "type": "Point",
                "coordinates": [
                    135.7167704,
                    34.7254536
                ]
            }
        },
        {
            "type": "Feature",
            "properties": {
                "A32_001": "29209",
                "A32_002": "",
                "A32_003": "光明中学校",
                "address": "",
                "label": "光明中学校"
            },
            "geometry": {
                "type": "Point",
                "coordinates": [
                    135.7083313,
                    34.7117649
                ]
            }
        },
        {
            "type": "Feature",
            "properties": {
                "A32_001": "29209",
                "A32_002": "",
                "A32_003": "鹿ノ台中学校",
                "address": "",
                "label": "鹿ノ台中学校"
            },
            "geometry": {
                "type": "Point",
                "coordinates": [
                    135.7479375,
                    34.73336249
                ]
            }
        },
        {
            "type": "Feature",
            "properties": {
                "A32_001": "29209",
                "A32_002": "",
                "A32_003": "緑ヶ丘中学校",
                "address": "",
                "label": "緑ヶ丘中学校"
            },
            "geometry": {
                "type": "Point",
                "coordinates": [
                    135.6990927,
                    34.68278787
                ]
            }
        }
    ]
}
